[
{
"CountryId": "1",
"CountryName": "آنتیگوا و باربودا ",
"CountryFlag": "antiguabarbuda",
"CountryLat" : "17.1167",
"CountryLng":"61.8500"
},
{
"CountryId": "2",
"CountryName": "ارژانتین",
"CountryFlag" : "argentina",
"CountryLat" : "34.6000",
"CountryLng":"58.3833"
},
{
"CountryId": "3",
"CountryName": "باهاماس",
"CountryFlag" : "bahamas",
"CountryLat" : "25.0667",
"CountryLng":"77.3333"
},
{
"CountryId": "4",
"CountryName": "باربادوس",
"CountryFlag" : "barbados",
"CountryLat" : "13.1667",
"CountryLng":"59.5500"
},
{
"CountryId": "5",
"CountryName": "بلیز",
"CountryFlag" : "belize",
"CountryLat" : "17.2500",
"CountryLng":"88.7667"
},
{
"CountryId": "6",
"CountryName": "بولیوی",
"CountryFlag" : "bolivia",
"CountryLat" : "16.7120",
"CountryLng":"64.6660"
},
{
"CountryId": "7",
"CountryName": "برزیل",
"CountryFlag" : "brazil",
"CountryLat" : "15.7833",
"CountryLng":"47.8667"
},
{
"CountryId": "8",
"CountryName": "کانادا",
"CountryFlag" : "canada",
"CountryLat" : "45.4000",
"CountryLng":"75.6667"
},
{
"CountryId": "9",
"CountryName": "شیلی",
"CountryFlag" : "chile",
"CountryLat" : "33.4333",
"CountryLng":"70.6667"
},
{
"CountryId": "10",
"CountryName": "کلمبیا",
"CountryFlag" : "colombia",
"CountryLat" : "4.5833",
"CountryLng":"74.0667"
},
{
"CountryId": "11",
"CountryName": "کاستاریکا",
"CountryFlag" : "costarica",
"CountryLat" : "9.9333",
"CountryLng":"84.0833"
},
{
"CountryId": "12",
"CountryName": "کوبا",
"CountryFlag" : "cuba",
"CountryLat" : "23.1333",
"CountryLng":"82.3833"
},
{
"CountryId": "13",
"CountryName": "دومینیکا",
"CountryFlag" : "dominica",
"CountryLat" : "15.3000",
"CountryLng":"61.3833"
},
{
"CountryId": "14",
"CountryName": "جمهوری دومینیکن",
"CountryFlag" : "dominicanrepublic",
"CountryLat" : "19.0000",
"CountryLng":"70.6667"
},
{
"CountryId": "15",
"CountryName": "اکوادور ",
"CountryFlag" : "ecuador",
"CountryLat" : "0.1500",
"CountryLng":"78.3500"
},
{
"CountryId": "16",
"CountryName": "ال سالوادور ",
"CountryFlag" : "elsalvador",
"CountryLat" : "13.6667",
"CountryLng":"89.1667"
},
{
"CountryId": "17",
"CountryName": "گواتمالا ",
"CountryFlag" : "guatemala",
"CountryLat" : "14.6333",
"CountryLng":"90.5000"
},
{
"CountryId": "18",
"CountryName": "گویان ",
"CountryFlag" : "guyana",
"CountryLat" : "5.0000",
"CountryLng":"58.7500"
},
{
"CountryId": "19",
"CountryName": "هائیتی ",
"CountryFlag" : "haiti",
"CountryLat" : "18.5333",
"CountryLng":"72.3333"
},
{
"CountryId": "20",
"CountryName": "هندوراس ",
"CountryFlag" : "honduras",
"CountryLat" : "14.1000",
"CountryLng":"87.2167"
},
{
"CountryId": "21",
"CountryName": "جامائیکا ",
"CountryFlag" : "jamaica",
"CountryLat" : "18.1824",
"CountryLng":"77.3218"
},
{
"CountryId": "22",
"CountryName": "مکزیک ",
"CountryFlag" : "mexico",
"CountryLat" : "19.0000",
"CountryLng":"99.1333"
},
{
"CountryId": "23",
"CountryName": "نیکاراگوآ ",
"CountryFlag" : "nicaragua",
"CountryLat" : "13.0000",
"CountryLng":"85.0000"
},
{
"CountryId": "24",
"CountryName": "پاناما ",
"CountryFlag" : "panama",
"CountryLat" : "8.9667",
"CountryLng":"79.5333"
},
{
"CountryId": "25",
"CountryName": "پاراگوئه ",
"CountryFlag" : "paraguay",
"CountryLat" : "25.2667",
"CountryLng":"57.6667"
},
{
"CountryId": "26",
"CountryName": "پرو ",
"CountryFlag" : "peru",
"CountryLat" : "12.0433",
"CountryLng":"77.0283"
},
{
"CountryId": "27",
"CountryName": "پورتوریکو ",
"CountryFlag" : "puertorico",
"CountryLat" : "18.4500",
"CountryLng":"66.1000"
},
{
"CountryId": "28",
"CountryName": "سورینام ",
"CountryFlag" : "suriname",
"CountryLat" : "5.8333",
"CountryLng":"55.1667"
},
{
"CountryId": "29",
"CountryName": " ترینیداد و توباگو  ",
"CountryFlag" : "trinidadtobago",
"CountryLat" : "10.6667",
"CountryLng":"61.5167"
},
{
"CountryId": "30",
"CountryName": "ایالات متحده آمریکا ",
"CountryFlag" : "usa",
"CountryLat" : "38.8833",
"CountryLng":"77.0167"
},
{
"CountryId": "31",
"CountryName": "ونزوئلا ",
"CountryFlag" : "venezuela",
"CountryLat" : "10.5000",
"CountryLng":"66.9667"
}
]