[
{
"CountryId": "1",
"CountryName": "جمهوری اسلامی ایران",
"CountryFlag" : "iran",
"CountryLat" : "32.0000",
"CountryLng":"53.0000"
},
{
"CountryId": "2",
"CountryName": "تاجیکستان",
"CountryFlag" : "tajikestan",
"CountryLat" : "38.5500",
"CountryLng":"68.8000"
},
{
"CountryId": "3",
"CountryName": "ترکمنستان",
"CountryFlag" : "torkmanestan",
"CountryLat" : "37.9667",
"CountryLng":"58.3333"
},
{
"CountryId": "4",
"CountryName": "آذربایجان",
"CountryFlag" : "azerbayjan",
"CountryLat" : "40.3000",
"CountryLng":"47.7000"
}
,
{
"CountryId": "5",
"CountryName": "افغانستان",
"CountryFlag" : "afghanistan",
"CountryLat" : "34.5333",
"CountryLng":"69.1333"
},
{
"CountryId": "6",
"CountryName": "ارمنستان",
"CountryFlag" : "armania",
"CountryLat" : "40.1833",
"CountryLng":"44.5167"
},
{
"CountryId": "7",
"CountryName": "بنگلادش",
"CountryFlag" : "bangladesh",
"CountryLat" : "23.7000",
"CountryLng":"90.3500"
},
{
"CountryId": "8",
"CountryName": "بوتان",
"CountryFlag" : "bhutan",
"CountryLat" : "27.4170",
"CountryLng":"90.4350"
},
{
"CountryId": "9",
"CountryName": "برنی",
"CountryFlag" : "brunei",
"CountryLat" : "4.8903",
"CountryLng":"114.9422"
},
{
"CountryId": "10",
"CountryName": "چین",
"CountryFlag" : "china",
"CountryLat" : "35.0000",
"CountryLng":"103.0000"
},
{
"CountryId": "11",
"CountryName": "هند",
"CountryFlag" : "india",
"CountryLat" : "21.0000",
"CountryLng":"78.0000"
},
{
"CountryId": "12",
"CountryName": "اندونزی",
"CountryFlag" : "indonezia",
"CountryLat" : "6.1750",
"CountryLng":"106.8283"
},
{
"CountryId": "13",
"CountryName": "عراق",
"CountryFlag" : "iraq",
"CountryLat" : "33.3333",
"CountryLng":"44.4333"
},
{
"CountryId": "14",
"CountryName": "ژاپن",
"CountryFlag" : "japan",
"CountryLat" : "35.6833",
"CountryLng":"139.7667"
},
{
"CountryId": "15",
"CountryName": "اردن",
"CountryFlag" : "jordan",
"CountryLat" : "31.9500",
"CountryLng":"35.9333"
},
{
"CountryId": "16",
"CountryName": "قزاقستان",
"CountryFlag" : "kazakhstan",
"CountryLat" : "48.0000",
"CountryLng":"68.0000"
},
{
"CountryId": "17",
"CountryName": "کویت",
"CountryFlag" : "kuwait",
"CountryLat" : "29.3667",
"CountryLng":"47.9667"
},
{
"CountryId": "18",
"CountryName": "قرقیزستان",
"CountryFlag" : "kyrgyzstan",
"CountryLat" : "42.8667",
"CountryLng":"74.6000"
},
{
"CountryId": "19",
"CountryName": "لائوس",
"CountryFlag" : "laos",
"CountryLat" : "17.9667",
"CountryLng":"102.6000"
},
{
"CountryId": "20",
"CountryName": "لبنان",
"CountryFlag" : "lebanon",
"CountryLat" : "33.9000",
"CountryLng":"35.5333"
},
{
"CountryId": "21",
"CountryName": "مالزی",
"CountryFlag" : "malaysia",
"CountryLat" : "3.1333",
"CountryLng":"101.7000"
},
{
"CountryId": "22",
"CountryName": "مغولستان",
"CountryFlag" : "mongolia",
"CountryLat" : "46.0000",
"CountryLng":"105.0000"
},
{
"CountryId": "23",
"CountryName": "میانمار",
"CountryFlag" : "myanmar",
"CountryLat" : "22.0000",
"CountryLng":"96.0000"
},
{
"CountryId": "24",
"CountryName": "نپال",
"CountryFlag" : "nepal",
"CountryLat" : "26.5333",
"CountryLng":"86.7333"
},
{
"CountryId": "25",
"CountryName": "کره شمالی",
"CountryFlag" : "northkorea",
"CountryLat" : "40.0000",
"CountryLng":"127.0000"
},
{
"CountryId": "26",
"CountryName": "پاکستان",
"CountryFlag" : "pakistan",
"CountryLat" : "33.6667",
"CountryLng":"73.1667"
},
{
"CountryId": "27",
"CountryName": "فلسطین",
"CountryFlag" : "palestine",
"CountryLat" : "31.6253",
"CountryLng":"35.1453"
},
{
"CountryId": "28",
"CountryName": "فیلیپین",
"CountryFlag" : "philippines",
"CountryLat" : "13.0000",
"CountryLng":"122.0000"
},
{
"CountryId": "29",
"CountryName": "قطر",
"CountryFlag" : "qatar",
"CountryLat" : "25.3000",
"CountryLng":"51.5167"
},
{
"CountryId": "30",
"CountryName": "عربستان سعودی",
"CountryFlag" : "saudi",
"CountryLat" : "24.0000",
"CountryLng":"45.0000"
},
{
"CountryId": "31",
"CountryName": "سنگاپور",
"CountryFlag" : "singapore",
"CountryLat" : "1.3000",
"CountryLng":"103.8000"
},
{
"CountryId": "32",
"CountryName": "کره جنوبی",
"CountryFlag" : "southkorea",
"CountryLat" : "37.5500",
"CountryLng":"126.9667"
},
{
"CountryId": "33",
"CountryName": "سریلانکا",
"CountryFlag" : "srilanka",
"CountryLat" : "7.0000",
"CountryLng":"81.0000"
},
{
"CountryId": "34",
"CountryName": "سوریه",
"CountryFlag" : "syria",
"CountryLat" : "33.5000",
"CountryLng":"36.3000"
},
{
"CountryId": "35",
"CountryName": "تایوان",
"CountryFlag" : "taiwan",
"CountryLat" : "23.5000",
"CountryLng":"121.0000"
},
{
"CountryId": "36",
"CountryName": "تایلند",
"CountryFlag" : "thailand",
"CountryLat" : "13.7500",
"CountryLng":"100.4833"
},
{
"CountryId": "37",
"CountryName": "تیمور شرقی",
"CountryFlag" : "timorleste",
"CountryLat" : "8.5667",
"CountryLng":"125.5667"
},
{
"CountryId": "38",
"CountryName": "ایالات متحده امارات",
"CountryFlag" : "uae",
"CountryLat" : "24.4667",
"CountryLng":"54.3667"
},
{
"CountryId": "39",
"CountryName": "ازبکستان",
"CountryFlag" : "uzbekistan",
"CountryLat" : "41.0000",
"CountryLng":"69.0000"
},
{
"CountryId": "40",
"CountryName": "ویتنام",
"CountryFlag" : "vietnam",
"CountryLat" : "21.0333",
"CountryLng":"105.8500"
},
{
"CountryId": "41",
"CountryName": "یمن",
"CountryFlag" : "yemen",
"CountryLat" : "15.0000",
"CountryLng":"48.0000"
},
{
"CountryId": "42",
"CountryName": "بحرین",
"CountryFlag" : "bahrain",
"CountryLat" : "26.0275",
"CountryLng":"50.5500"
},
{
"CountryId": "43",
"CountryName": "عمان",
"CountryFlag" : "oman",
"CountryLat" : "23.6000",
"CountryLng":"58.5500"
}
]